[
  {
    "id": "c0b047006cf66858266e9842",
    "name": "林四喜·闽南传家菜(鼓浪屿店)",
    "longitude": 118.07724,
    "latitude": 24.451249,
    "address": "龙头路300号（上屿水产对面）",
    "type": "美食;中餐厅",
    "tel": "(0592)2069773",
    "rating": "5.0",
    "photos": [],
    "district": "思明区",
    "food_area": "中山路美食街",
    "price": 30,
    "signature": "招牌美食;中餐厅",
    "tags": "美食;中餐厅",
    "area_color": "#FF6B6B"
  },
  {
    "id": "52b7e5187379dee296ec84cd",
    "name": "林记老思西鸡蛋汉堡",
    "longitude": 118.08502,
    "latitude": 24.461669,
    "address": "思明西路山仔顶巷20号",
    "type": "美食;小吃快餐店",
    "tel": "15060695505",
    "rating": "5.0",
    "photos": [],
    "district": "思明区",
    "food_area": "中山路美食街",
    "price": 15,
    "signature": "招牌美食;小吃快餐店",
    "tags": "美食;小吃快餐店",
    "area_color": "#FF6B6B"
  },
  {
    "id": "7c7a5f31f20ae2b22811d102",
    "name": "阿弟家常菜",
    "longitude": 118.13142,
    "latitude": 24.432358,
    "address": "曾厝垵村中山街曾厝垵社136号",
    "type": "美食;中餐厅",
    "tel": "15759207879",
    "rating": "5.0",
    "photos": [],
    "district": "思明区",
    "food_area": "曾厝垵文创村",
    "price": 30,
    "signature": "招牌美食;中餐厅",
    "tags": "美食;中餐厅",
    "area_color": "#FF9F43"
  },
  {
    "id": "cb0f857b1f7bbadf14c8f6ae",
    "name": "曾有味闽菜·海鲜·湘菜(曾厝垵店)",
    "longitude": 118.132274,
    "latitude": 24.430748,
    "address": "环岛南路曾厝垵2-25（双城记民宿对面）",
    "type": "美食;中餐厅",
    "tel": "15970365057,18359240617",
    "rating": "5.0",
    "photos": [],
    "district": "思明区",
    "food_area": "曾厝垵文创村",
    "price": 30,
    "signature": "招牌美食;中餐厅",
    "tags": "美食;中餐厅",
    "area_color": "#FF9F43"
  },
  {
    "id": "0747d5e69864ac773617dc7c",
    "name": "邻家酒楼",
    "longitude": 118.130931,
    "latitude": 24.430008,
    "address": "厦门市思明区环岛南路308号",
    "type": "美食;中餐厅",
    "tel": "(0592)2517773",
    "rating": "5.0",
    "photos": [],
    "district": "思明区",
    "food_area": "曾厝垵文创村",
    "price": 30,
    "signature": "招牌美食;中餐厅",
    "tags": "美食;中餐厅",
    "area_color": "#FF9F43"
  },
  {
    "id": "6ca834381a47debd35b06c7a",
    "name": "清真兰州拉面(曾厝垵店)",
    "longitude": 118.131687,
    "latitude": 24.431293,
    "address": "福建省厦门市思明区曾厝垵社2-6号",
    "type": "美食;小吃快餐店",
    "tel": "18919404021",
    "rating": "5.0",
    "photos": [],
    "district": "思明区",
    "food_area": "曾厝垵文创村",
    "price": 15,
    "signature": "招牌美食;小吃快餐店",
    "tags": "美食;小吃快餐店",
    "area_color": "#FF9F43"
  },
  {
    "id": "b7676f29560324b482a12e58",
    "name": "老厦门炸醋肉(文青路店)",
    "longitude": 118.130313,
    "latitude": 24.431745,
    "address": "厦门市思明区环岛南路曾厝垵",
    "type": "美食;小吃快餐店",
    "tel": "",
    "rating": "5.0",
    "photos": [],
    "district": "思明区",
    "food_area": "曾厝垵文创村",
    "price": 15,
    "signature": "招牌美食;小吃快餐店",
    "tags": "美食;小吃快餐店",
    "area_color": "#FF9F43"
  },
  {
    "id": "7f6743da9b30801114c8f6af",
    "name": "起点沙县美食(沙坡尾店)",
    "longitude": 118.095742,
    "latitude": 24.442321,
    "address": "演武西路180号",
    "type": "美食;小吃快餐店",
    "tel": "13859123029",
    "rating": "5.0",
    "photos": [],
    "district": "思明区",
    "food_area": "沙坡尾艺术区",
    "price": 15,
    "signature": "招牌美食;小吃快餐店",
    "tags": "美食;小吃快餐店",
    "area_color": "#FECA57"
  },
  {
    "id": "7f7d9e839e4ffe542811d134",
    "name": "阿芳卤面·老字号(沙坡尾大学路店)",
    "longitude": 118.095851,
    "latitude": 24.443046,
    "address": "大学路160-162号",
    "type": "美食;小吃快餐店",
    "tel": "15359312955",
    "rating": "5.0",
    "photos": [],
    "district": "思明区",
    "food_area": "沙坡尾艺术区",
    "price": 15,
    "signature": "招牌美食;小吃快餐店",
    "tags": "美食;小吃快餐店",
    "area_color": "#FECA57"
  },
  {
    "id": "3875b1652acda4942811d147",
    "name": "上官栗子四果汤(沙坡尾店)",
    "longitude": 118.09505,
    "latitude": 24.443998,
    "address": "大学路166",
    "type": "美食;其他",
    "tel": "18150367201",
    "rating": "5.0",
    "photos": [],
    "district": "思明区",
    "food_area": "沙坡尾艺术区",
    "price": 25,
    "signature": "招牌美食;其他",
    "tags": "美食;其他",
    "area_color": "#FECA57"
  },
  {
    "id": "75dec24abfb1dd01f6c59c3b",
    "name": "张三疯奶茶铺(沙坡尾店)",
    "longitude": 118.095027,
    "latitude": 24.444084,
    "address": "大学路157号",
    "type": "美食;其他",
    "tel": "(0592)5030867",
    "rating": "5.0",
    "photos": [],
    "district": "思明区",
    "food_area": "沙坡尾艺术区",
    "price": 25,
    "signature": "招牌美食;其他",
    "tags": "美食;其他",
    "area_color": "#FECA57"
  },
  {
    "id": "9037181e019d0ce4611c675a",
    "name": "Couldday Coffee(环岛路店)",
    "longitude": 118.147441,
    "latitude": 24.43925,
    "address": "黄厝塔头303号一楼",
    "type": "美食;咖啡厅",
    "tel": "15659820756",
    "rating": "5.0",
    "photos": [],
    "district": "思明区",
    "food_area": "沙坡尾艺术区",
    "price": 20,
    "signature": "招牌美食;咖啡厅",
    "tags": "美食;咖啡厅",
    "area_color": "#FECA57"
  },
  {
    "id": "665df2a929456e8417c8f62d",
    "name": "Aita咖啡花艺甜品",
    "longitude": 118.167723,
    "latitude": 24.538922,
    "address": "福建省厦门市湖里区墩岭路81号天地雅园1号楼81105楼",
    "type": "美食;咖啡厅",
    "tel": "13850086814",
    "rating": "5.0",
    "photos": [],
    "district": "思明区",
    "food_area": "沙坡尾艺术区",
    "price": 20,
    "signature": "招牌美食;咖啡厅",
    "tags": "美食;咖啡厅",
    "area_color": "#FECA57"
  },
  {
    "id": "205b01f4546f2fdbb64f54ba",
    "name": "Between Coffee",
    "longitude": 118.129131,
    "latitude": 24.489985,
    "address": "福建省厦门市思明区嘉莲街道嘉禾路217-、219-、221号",
    "type": "美食;咖啡厅",
    "tel": "13806061339",
    "rating": "5.0",
    "photos": [],
    "district": "思明区",
    "food_area": "沙坡尾艺术区",
    "price": 20,
    "signature": "招牌美食;咖啡厅",
    "tags": "美食;咖啡厅",
    "area_color": "#FECA57"
  },
  {
    "id": "796c8af4118e6f90ab059d6b",
    "name": "那私厨·红砖老别墅餐厅(鼓浪屿店)",
    "longitude": 118.074097,
    "latitude": 24.451069,
    "address": "鼓浪屿街道鼓浪屿安海路59号",
    "type": "美食;中餐厅",
    "tel": "(0592)2066066",
    "rating": "5.0",
    "photos": [],
    "district": "思明区",
    "food_area": "鼓浪屿美食区",
    "price": 30,
    "signature": "招牌美食;中餐厅",
    "tags": "美食;中餐厅",
    "area_color": "#54A0FF"
  },
  {
    "id": "c05d36ec9de22d2ead0457cb",
    "name": "屿见林居",
    "longitude": 118.075076,
    "latitude": 24.448976,
    "address": "鼓浪屿街道鼓浪屿永春路45号",
    "type": "美食;中餐厅",
    "tel": "18950089423",
    "rating": "5.0",
    "photos": [],
    "district": "思明区",
    "food_area": "鼓浪屿美食区",
    "price": 30,
    "signature": "招牌美食;中餐厅",
    "tags": "美食;中餐厅",
    "area_color": "#54A0FF"
  },
  {
    "id": "72bbf9bfd475cd952fb17e61",
    "name": "小敏沙茶面",
    "longitude": 118.07772,
    "latitude": 24.451595,
    "address": "福建省厦门市思明区鼓浪屿龙头路4号鼓浪屿农贸市场外围128号店",
    "type": "美食;小吃快餐店",
    "tel": "15359239974",
    "rating": "5.0",
    "photos": [],
    "district": "思明区",
    "food_area": "鼓浪屿美食区",
    "price": 15,
    "signature": "招牌美食;小吃快餐店",
    "tags": "美食;小吃快餐店",
    "area_color": "#54A0FF"
  },
  {
    "id": "7724eff9d2c555f79222e0e8",
    "name": "清真兰州拉面(鼓浪屿分店)",
    "longitude": 118.078378,
    "latitude": 24.451509,
    "address": "龙头路60号",
    "type": "美食;小吃快餐店",
    "tel": "18609722422",
    "rating": "5.0",
    "photos": [],
    "district": "思明区",
    "food_area": "鼓浪屿美食区",
    "price": 15,
    "signature": "招牌美食;小吃快餐店",
    "tags": "美食;小吃快餐店",
    "area_color": "#54A0FF"
  },
  {
    "id": "a96944eff943eccb047ce826",
    "name": "金家港海鲜大排档(中山路店)",
    "longitude": 118.083374,
    "latitude": 24.460221,
    "address": "中山路49号(瑞幸咖啡斜对面);22年老字号保证鲜活",
    "type": "美食;中餐厅",
    "tel": "13600969182",
    "rating": "5.0",
    "photos": [],
    "district": "思明区",
    "food_area": "厦门大学周边",
    "price": 30,
    "signature": "招牌美食;中餐厅",
    "tags": "美食;中餐厅",
    "area_color": "#5F27CD"
  },
  {
    "id": "9954331f95ffe244a8f0cd2a",
    "name": "朱光玉火锅馆(厦门SM城市广场店)",
    "longitude": 118.132885,
    "latitude": 24.507355,
    "address": "嘉禾路SM城市广场一期三楼348a号",
    "type": "美食;中餐厅",
    "tel": "13395076510",
    "rating": "5.0",
    "photos": [],
    "district": "湖里区",
    "food_area": "SM城市广场",
    "price": 30,
    "signature": "招牌美食;中餐厅",
    "tags": "美食;中餐厅",
    "area_color": "#01A3A4"
  },
  {
    "id": "1458282214cad79b2302208e",
    "name": "遇见小面(SM城市广场一期店)",
    "longitude": 118.133611,
    "latitude": 24.507419,
    "address": "嘉禾路468号SM城市广场一期负1楼（近南门）",
    "type": "美食;小吃快餐店",
    "tel": "4007628000",
    "rating": "5.0",
    "photos": [],
    "district": "湖里区",
    "food_area": "SM城市广场",
    "price": 15,
    "signature": "招牌美食;小吃快餐店",
    "tags": "美食;小吃快餐店",
    "area_color": "#01A3A4"
  },
  {
    "id": "881f5c0569679af201294f73",
    "name": "SM厦门海沧城市广场",
    "longitude": 117.962906,
    "latitude": 24.545781,
    "address": "福建省厦门市海沧区孚莲路1818号",
    "type": "购物;购物中心",
    "tel": "(0592)6088118",
    "rating": "5.0",
    "photos": [],
    "district": "湖里区",
    "food_area": "SM城市广场",
    "price": 25,
    "signature": "招牌购物;购物中心",
    "tags": "购物;购物中心",
    "area_color": "#01A3A4"
  },
  {
    "id": "ee71f16f3cde99261811d5ba",
    "name": "食里氧坊(SM城市广场店)",
    "longitude": 118.133771,
    "latitude": 24.50667,
    "address": "福建省厦门市湖里区嘉禾路468号SM城市广场一期F5",
    "type": "美食;小吃快餐店",
    "tel": "",
    "rating": "5.0",
    "photos": [],
    "district": "湖里区",
    "food_area": "SM城市广场",
    "price": 15,
    "signature": "招牌美食;小吃快餐店",
    "tags": "美食;小吃快餐店",
    "area_color": "#01A3A4"
  },
  {
    "id": "78b51f048ff60521e115f9b4",
    "name": "拾喜(SM城市广场店)",
    "longitude": 118.13701,
    "latitude": 24.508272,
    "address": "福建省厦门市湖里区乌石浦二里60号之一",
    "type": "美食",
    "tel": "13625010788",
    "rating": "5.0",
    "photos": [],
    "district": "湖里区",
    "food_area": "SM城市广场",
    "price": 25,
    "signature": "招牌美食",
    "tags": "美食",
    "area_color": "#01A3A4"
  },
  {
    "id": "df7aa0df2b155089bfa822f5",
    "name": "荣荣牛肉兜汤(集美学村店)",
    "longitude": 118.110511,
    "latitude": 24.578272,
    "address": "塘美路81号",
    "type": "美食;小吃快餐店",
    "tel": "15880219785,15960339888",
    "rating": "5.0",
    "photos": [],
    "district": "集美区",
    "food_area": "集美学村美食",
    "price": 15,
    "signature": "招牌美食;小吃快餐店",
    "tags": "美食;小吃快餐店",
    "area_color": "#10AC84"
  },
  {
    "id": "bd2e4b771d842e92d7851fc5",
    "name": "阿罗海公益夜市(阿罗海城市广场店)",
    "longitude": 118.03803,
    "latitude": 24.485737,
    "address": "厦门市海沧区滨湖北二路70号阿罗海城市广场(纸的时代·爱心书亭旁边)",
    "type": "美食;其他",
    "tel": "",
    "rating": "5.0",
    "photos": [],
    "district": "海沧区",
    "food_area": "海沧阿罗海",
    "price": 25,
    "signature": "招牌美食;其他",
    "tags": "美食;其他",
    "area_color": "#EE5A24"
  },
  {
    "id": "f82e7cf775f7c166d8ecedbd",
    "name": "云蓝印象云南菜(阿罗海店)",
    "longitude": 118.039341,
    "latitude": 24.486513,
    "address": "阿罗广场中庭A173-A174",
    "type": "美食;中餐厅",
    "tel": "(0592)2031314",
    "rating": "5.0",
    "photos": [],
    "district": "海沧区",
    "food_area": "海沧阿罗海",
    "price": 30,
    "signature": "招牌美食;中餐厅",
    "tags": "美食;中餐厅",
    "area_color": "#EE5A24"
  },
  {
    "id": "60e4c8e49988d5689cec2b97",
    "name": "大厝宅海鲜馆",
    "longitude": 118.239976,
    "latitude": 24.546181,
    "address": "434县道与新奥路交口澳头村上施里10号之1（距荻花洲10分钟车程）",
    "type": "美食;中餐厅",
    "tel": "(0592)7097577",
    "rating": "5.0",
    "photos": [],
    "district": "未知",
    "food_area": "其他区域",
    "price": 30,
    "signature": "招牌美食;中餐厅",
    "tags": "美食;中餐厅"
  },
  {
    "id": "91c918816e59801e31169beb",
    "name": "秀英食品",
    "longitude": 118.157529,
    "latitude": 24.734289,
    "address": "松柏林街134号",
    "type": "美食;小吃快餐店",
    "tel": "(0592)7025918",
    "rating": "5.0",
    "photos": [],
    "district": "未知",
    "food_area": "其他区域",
    "price": 15,
    "signature": "招牌美食;小吃快餐店",
    "tags": "美食;小吃快餐店"
  },
  {
    "id": "8057e80be1f5caaf5b1093d2",
    "name": "乡间小镇客家菜(吕岭店)",
    "longitude": 118.145877,
    "latitude": 24.498915,
    "address": "吕岭路185号之21",
    "type": "美食;中餐厅",
    "tel": "(0592)5552568",
    "rating": "5.0",
    "photos": [],
    "district": "湖里区",
    "food_area": "SM城市广场",
    "price": 30,
    "signature": "招牌美食;中餐厅",
    "tags": "美食;中餐厅",
    "area_color": "#01A3A4"
  },
  {
    "id": "db0d188b04d7c60cc356acdb",
    "name": "欢夕福建菜馆(海上世界店)",
    "longitude": 118.082306,
    "latitude": 24.496623,
    "address": "远航路77号海上世界4楼观景平台L411号（星聚会对面,2号电梯直达）",
    "type": "美食;中餐厅",
    "tel": "15306007025",
    "rating": "5.0",
    "photos": [],
    "district": "思明区",
    "food_area": "中山路美食街",
    "price": 30,
    "signature": "招牌美食;中餐厅",
    "tags": "美食;中餐厅",
    "area_color": "#FF6B6B"
  },
  {
    "id": "6e7e5de524eab2e5d62ce2d6",
    "name": "名鹭潮汕自助牛肉火锅(湖里店)",
    "longitude": 118.137757,
    "latitude": 24.511717,
    "address": "园山南路联发欣悦里3楼",
    "type": "美食;中餐厅",
    "tel": "13779954293",
    "rating": "5.0",
    "photos": [],
    "district": "湖里区",
    "food_area": "SM城市广场",
    "price": 30,
    "signature": "招牌美食;中餐厅",
    "tags": "美食;中餐厅",
    "area_color": "#01A3A4"
  },
  {
    "id": "4e49d0df72bf13afaeb22a5f",
    "name": "尚合里潮汕牛肉火锅(海沧店)",
    "longitude": 118.042446,
    "latitude": 24.496027,
    "address": "海富路55-5号",
    "type": "美食;中餐厅",
    "tel": "(0592)6889990",
    "rating": "5.0",
    "photos": [],
    "district": "海沧区",
    "food_area": "海沧阿罗海",
    "price": 30,
    "signature": "招牌美食;中餐厅",
    "tags": "美食;中餐厅",
    "area_color": "#EE5A24"
  },
  {
    "id": "afed043018c68dc63ce23145",
    "name": "姐妹海鲜酒楼(海沧大道店)",
    "longitude": 118.05045,
    "latitude": 24.486852,
    "address": "沧凤路泰地海西商业街889号",
    "type": "美食;中餐厅",
    "tel": "(0592)6803939,(0592)6888222",
    "rating": "5.0",
    "photos": [],
    "district": "海沧区",
    "food_area": "海沧阿罗海",
    "price": 30,
    "signature": "招牌美食;中餐厅",
    "tags": "美食;中餐厅",
    "area_color": "#EE5A24"
  },
  {
    "id": "46e66be19aae8407fa42b203",
    "name": "老漳头四果汤(郑坂店)",
    "longitude": 118.244962,
    "latitude": 24.647599,
    "address": "郑坂南里112-105室",
    "type": "美食;其他",
    "tel": "15859235878",
    "rating": "5.0",
    "photos": [],
    "district": "未知",
    "food_area": "其他区域",
    "price": 25,
    "signature": "招牌美食;其他",
    "tags": "美食;其他"
  },
  {
    "id": "a3f21eee3c2c1d5d2fb17e4d",
    "name": "鲜芋仙(轮渡店)",
    "longitude": 118.080896,
    "latitude": 24.46043,
    "address": "中华街道海后路25号1楼(近工商银行/中山路步行街附近)",
    "type": "美食;其他",
    "tel": "",
    "rating": "5.0",
    "photos": [],
    "district": "思明区",
    "food_area": "鼓浪屿美食区",
    "price": 25,
    "signature": "招牌美食;其他",
    "tags": "美食;其他",
    "area_color": "#54A0FF"
  },
  {
    "id": "26749200f65ad48cbfa822c0",
    "name": "细甜阿嬷闽南糖水铺",
    "longitude": 118.106585,
    "latitude": 24.58724,
    "address": "石鼓路271号",
    "type": "美食;其他",
    "tel": "15860705277,18050125562",
    "rating": "5.0",
    "photos": [],
    "district": "集美区",
    "food_area": "集美学村美食",
    "price": 25,
    "signature": "招牌美食;其他",
    "tags": "美食;其他",
    "area_color": "#10AC84"
  },
  {
    "id": "43526e555cde0a4c86420e42",
    "name": "西优烘焙·蛋糕·面包·甜点(翔安店)",
    "longitude": 118.252715,
    "latitude": 24.612967,
    "address": "福建省厦门市翔安区新兴路255号",
    "type": "美食;蛋糕甜品店",
    "tel": "13030890916",
    "rating": "5.0",
    "photos": [],
    "district": "未知",
    "food_area": "其他区域",
    "price": 25,
    "signature": "招牌美食;蛋糕甜品店",
    "tags": "美食;蛋糕甜品店"
  },
  {
    "id": "460fb13e6888760e81288a61",
    "name": "余小汐·蛋糕·甜品(同安店)",
    "longitude": 118.165173,
    "latitude": 24.736854,
    "address": "大同街道碧岳村铺前里170号",
    "type": "美食;蛋糕甜品店",
    "tel": "13063093253",
    "rating": "5.0",
    "photos": [],
    "district": "未知",
    "food_area": "其他区域",
    "price": 25,
    "signature": "招牌美食;蛋糕甜品店",
    "tags": "美食;蛋糕甜品店"
  },
  {
    "id": "b387264d72776545b75f1e4b",
    "name": "向阳坊(同安莲花店)",
    "longitude": 118.073149,
    "latitude": 24.751544,
    "address": "莲花镇美埔村莲美街658-7号",
    "type": "美食;蛋糕甜品店",
    "tel": "(0592)7106105",
    "rating": "5.0",
    "photos": [],
    "district": "未知",
    "food_area": "其他区域",
    "price": 25,
    "signature": "招牌美食;蛋糕甜品店",
    "tags": "美食;蛋糕甜品店"
  },
  {
    "id": "8f543f23186fb9727ab55cfc",
    "name": "醉壹号海鲜大排档·三十年老字号(厦门美食地标店)",
    "longitude": 118.08531,
    "latitude": 24.465516,
    "address": "思明北路第四市场1-3号（请认准醉壹号品牌、三十年老字号、来厦必尝美食地标）",
    "type": "美食;中餐厅",
    "tel": "(0592)2106130,15960264390",
    "rating": "4.9",
    "photos": [],
    "district": "思明区",
    "food_area": "中山路美食街",
    "price": 30,
    "signature": "招牌美食;中餐厅",
    "tags": "美食;中餐厅",
    "area_color": "#FF6B6B"
  },
  {
    "id": "ec07bbdbaf82f3fc50e5c57d",
    "name": "优品潮汕黄牛肉",
    "longitude": 118.083045,
    "latitude": 24.464816,
    "address": "福建省厦门市思明区营平路2号",
    "type": "美食;中餐厅",
    "tel": "13235005305",
    "rating": "4.9",
    "photos": [],
    "district": "海沧区",
    "food_area": "海沧阿罗海",
    "price": 30,
    "signature": "招牌美食;中餐厅",
    "tags": "美食;中餐厅",
    "area_color": "#EE5A24"
  },
  {
    "id": "ceffa580cb60f4079f09f727",
    "name": "金喜沙茶面(中山路店)",
    "longitude": 118.085025,
    "latitude": 24.460271,
    "address": "中山路105号-101",
    "type": "美食;小吃快餐店",
    "tel": "18965162100",
    "rating": "4.8",
    "photos": [],
    "district": "思明区",
    "food_area": "中山路美食街",
    "price": 15,
    "signature": "招牌美食;小吃快餐店",
    "tags": "美食;小吃快餐店",
    "area_color": "#FF6B6B"
  },
  {
    "id": "b528a7017fc3fc310bf5eb9e",
    "name": "社里沙茶面",
    "longitude": 118.130139,
    "latitude": 24.432197,
    "address": "环岛南路曾厝埯26号",
    "type": "美食;小吃快餐店",
    "tel": "",
    "rating": "4.7",
    "photos": [],
    "district": "思明区",
    "food_area": "曾厝垵文创村",
    "price": 15,
    "signature": "招牌美食;小吃快餐店",
    "tags": "美食;小吃快餐店",
    "area_color": "#FF9F43"
  },
  {
    "id": "4fb74896151ddb34d7851ff0",
    "name": "喜厝Seashore海鲜食堂(鼓浪屿店)",
    "longitude": 118.074967,
    "latitude": 24.451469,
    "address": "鼓浪屿街道鼓浪屿中华路65号（龙头路可接）",
    "type": "美食;中餐厅",
    "tel": "15860753005",
    "rating": "4.7",
    "photos": [],
    "district": "思明区",
    "food_area": "鼓浪屿美食区",
    "price": 30,
    "signature": "招牌美食;中餐厅",
    "tags": "美食;中餐厅",
    "area_color": "#54A0FF"
  },
  {
    "id": "4272ea45804e7de26849f301",
    "name": "长者餐厅(鼓浪屿店)",
    "longitude": 118.076395,
    "latitude": 24.451031,
    "address": "泉州路24号",
    "type": "美食;中餐厅",
    "tel": "(0592)2068887",
    "rating": "4.7",
    "photos": [],
    "district": "思明区",
    "food_area": "鼓浪屿美食区",
    "price": 30,
    "signature": "招牌美食;中餐厅",
    "tags": "美食;中餐厅",
    "area_color": "#54A0FF"
  },
  {
    "id": "2fc2dfc8fe3756219b68b40b",
    "name": "集美学村",
    "longitude": 118.099219,
    "latitude": 24.57279,
    "address": "福建省厦门市集美区集美街道银江路183号",
    "type": "旅游景点;其他",
    "tel": "",
    "rating": "4.7",
    "photos": [],
    "district": "集美区",
    "food_area": "集美学村美食",
    "price": 25,
    "signature": "招牌旅游景点;其他",
    "tags": "旅游景点;其他",
    "area_color": "#10AC84"
  },
  {
    "id": "4b4b5ed9cbe0a16dc91b95c3",
    "name": "小阿罗海闽南超市",
    "longitude": 118.040129,
    "latitude": 24.465582,
    "address": "福建省厦门市海沧区嵩屿中路89号",
    "type": "购物;超市",
    "tel": "",
    "rating": "4.7",
    "photos": [],
    "district": "海沧区",
    "food_area": "海沧阿罗海",
    "price": 25,
    "signature": "招牌购物;超市",
    "tags": "购物;超市",
    "area_color": "#EE5A24"
  },
  {
    "id": "2ad32cc396c3ca969c95de8d",
    "name": "佳丽海鲜大酒楼(环岛海景店)",
    "longitude": 118.131555,
    "latitude": 24.429102,
    "address": "环岛南路306-1号",
    "type": "美食;中餐厅",
    "tel": "(0592)2195777",
    "rating": "4.6",
    "photos": [],
    "district": "思明区",
    "food_area": "曾厝垵文创村",
    "price": 30,
    "signature": "招牌美食;中餐厅",
    "tags": "美食;中餐厅",
    "area_color": "#FF9F43"
  },
  {
    "id": "024650e3b3da3a012fb96d3a",
    "name": "嘟贺·闽南沙茶火锅(中华城店)",
    "longitude": 118.088186,
    "latitude": 24.459364,
    "address": "思明南路中华城北区129号（中华城商场北区85℃旁7号8号直达电梯上2楼）",
    "type": "美食;中餐厅",
    "tel": "(0592)5517255",
    "rating": "4.6",
    "photos": [],
    "district": "思明区",
    "food_area": "中山路美食街",
    "price": 30,
    "signature": "招牌美食;中餐厅",
    "tags": "美食;中餐厅",
    "area_color": "#FF6B6B"
  },
  {
    "id": "5ac991611e092c54744ff19d",
    "name": "兴旺海鲜城(五缘湾店)",
    "longitude": 118.181842,
    "latitude": 24.515373,
    "address": "高林西里17号101",
    "type": "美食;中餐厅",
    "tel": "(0592)6026058,(0592)6026066",
    "rating": "4.6",
    "photos": [],
    "district": "未知",
    "food_area": "其他区域",
    "price": 30,
    "signature": "招牌美食;中餐厅",
    "tags": "美食;中餐厅"
  },
  {
    "id": "ff665a4fd3a7e40d100daac3",
    "name": "傣旺·云南下饭菜(厦门大学店)",
    "longitude": 118.099341,
    "latitude": 24.444115,
    "address": "演武路4号演武1658商场二楼（厦大西门正对面肯德基二楼后面）",
    "type": "美食;中餐厅",
    "tel": "",
    "rating": "4.5",
    "photos": [],
    "district": "思明区",
    "food_area": "厦门大学周边",
    "price": 30,
    "signature": "招牌美食;中餐厅",
    "tags": "美食;中餐厅",
    "area_color": "#5F27CD"
  },
  {
    "id": "68b02168e71ec7581f3894c6",
    "name": "腻友盒子蛋糕超好吃(集美学村店)",
    "longitude": 118.111276,
    "latitude": 24.58697,
    "address": "印斗路154号103室b单元",
    "type": "美食;蛋糕甜品店",
    "tel": "15396228218",
    "rating": "4.5",
    "photos": [],
    "district": "集美区",
    "food_area": "集美学村美食",
    "price": 25,
    "signature": "招牌美食;蛋糕甜品店",
    "tags": "美食;蛋糕甜品店",
    "area_color": "#10AC84"
  },
  {
    "id": "4ce10ce67f5689b8441a327d",
    "name": "小眼镜大排档(万佳东方店)",
    "longitude": 118.099062,
    "latitude": 24.460266,
    "address": "虎园路1号万佳东方酒店1楼（厦门园林植物园西门步行100m）",
    "type": "美食;其他",
    "tel": "(0592)5039778,(0592)5070778",
    "rating": "4.5",
    "photos": [],
    "district": "思明区",
    "food_area": "中山路美食街",
    "price": 25,
    "signature": "招牌美食;其他",
    "tags": "美食;其他",
    "area_color": "#FF6B6B"
  },
  {
    "id": "3b85fdde5021f618ed74f878",
    "name": "集美学村站(地铁站)",
    "longitude": 118.098782,
    "latitude": 24.570229,
    "address": "厦门市集美区海堤路海涛楼东北侧约170米",
    "type": "交通设施",
    "tel": "(0592)2506666",
    "rating": "4.4",
    "photos": [],
    "district": "集美区",
    "food_area": "集美学村美食",
    "price": 25,
    "signature": "招牌交通设施",
    "tags": "交通设施",
    "area_color": "#10AC84"
  },
  {
    "id": "854081f0e5bb0d523fe231d8",
    "name": "塔兰托(集美学村店)",
    "longitude": 118.105112,
    "latitude": 24.575729,
    "address": "福建厦门市集美区石鼓路12-1号",
    "type": "美食",
    "tel": "",
    "rating": "4.4",
    "photos": [],
    "district": "集美区",
    "food_area": "集美学村美食",
    "price": 25,
    "signature": "招牌美食",
    "tags": "美食",
    "area_color": "#10AC84"
  },
  {
    "id": "bfa3128cfb3e50d19e9d68c7",
    "name": "食汇速食(集美学村店)",
    "longitude": 118.112078,
    "latitude": 24.578541,
    "address": "浔江路155号",
    "type": "美食;小吃快餐店",
    "tel": "18020770762",
    "rating": "4.4",
    "photos": [],
    "district": "集美区",
    "food_area": "集美学村美食",
    "price": 15,
    "signature": "招牌美食;小吃快餐店",
    "tags": "美食;小吃快餐店",
    "area_color": "#10AC84"
  },
  {
    "id": "21acfbbef4dd8a4a9d95def6",
    "name": "茉莉奶白(海沧阿罗海城市广场店)",
    "longitude": 118.038436,
    "latitude": 24.485648,
    "address": "北二路70号大摩阿罗海城市广场一层B101单元",
    "type": "美食;其他",
    "tel": "15123516552",
    "rating": "4.4",
    "photos": [],
    "district": "海沧区",
    "food_area": "海沧阿罗海",
    "price": 25,
    "signature": "招牌美食;其他",
    "tags": "美食;其他",
    "area_color": "#EE5A24"
  },
  {
    "id": "a0975ba6eaf1c16188f15ddd",
    "name": "云上简里·海景咖啡厅(双子塔店)",
    "longitude": 118.095055,
    "latitude": 24.442047,
    "address": "演武西路180号世茂海峡大厦A塔63层6302号",
    "type": "美食;咖啡厅",
    "tel": "18046303699",
    "rating": "4.4",
    "photos": [],
    "district": "思明区",
    "food_area": "厦门大学周边",
    "price": 20,
    "signature": "招牌美食;咖啡厅",
    "tags": "美食;咖啡厅",
    "area_color": "#5F27CD"
  },
  {
    "id": "597570ba3188c1748f55ecc0",
    "name": "向阳坊(厦大店)",
    "longitude": 118.098779,
    "latitude": 24.443273,
    "address": "演武路69-2",
    "type": "美食;蛋糕甜品店",
    "tel": "(0592)5884890",
    "rating": "4.4",
    "photos": [],
    "district": "思明区",
    "food_area": "厦门大学周边",
    "price": 25,
    "signature": "招牌美食;蛋糕甜品店",
    "tags": "美食;蛋糕甜品店",
    "area_color": "#5F27CD"
  }
]